[{"model": "api.place", "pk": 1, "fields": {"city": "Tokyo", "lat": 35.685, "lon": 139.7514, "country": "Japan", "population": 35676000}}, {"model": "api.place", "pk": 2, "fields": {"city": "New York", "lat": 40.6943, "lon": -73.9249, "country": "United States", "population": 19164071}}, {"model": "api.place", "pk": 3, "fields": {"city": "Mexico City", "lat": 19.4424, "lon": -99.131, "country": "Mexico", "population": 19028000}}, {"model": "api.place", "pk": 4, "fields": {"city": "Mumbai", "lat": 19.017, "lon": 72.857, "country": "India", "population": 18978000}}, {"model": "api.place", "pk": 5, "fields": {"city": "Sao Paulo", "lat": -23.5587, "lon": -46.625, "country": "Brazil", "population": 18845000}}, {"model": "api.place", "pk": 6, "fields": {"city": "Delhi", "lat": 28.67, "lon": 77.23, "country": "India", "population": 15926000}}, {"model": "api.place", "pk": 7, "fields": {"city": "Shanghai", "lat": 31.2165, "lon": 121.4365, "country": "China", "population": 14987000}}, {"model": "api.place", "pk": 8, "fields": {"city": "Kolkata", "lat": 22.495, "lon": 88.3247, "country": "India", "population": 14787000}}, {"model": "api.place", "pk": 9, "fields": {"city": "Dhaka", "lat": 23.7231, "lon": 90.4086, "country": "Bangladesh", "population": 12797394}}, {"model": "api.place", "pk": 10, "fields": {"city": "Buenos Aires", "lat": -34.6025, "lon": -58.3975, "country": "Argentina", "population": 12795000}}, {"model": "api.place", "pk": 11, "fields": {"city": "Los Angeles", "lat": 34.114, "lon": -118.4068, "country": "United States", "population": 12740381}}, {"model": "api.place", "pk": 12, "fields": {"city": "Karachi", "lat": 24.87, "lon": 66.99, "country": "Pakistan", "population": 12130000}}, {"model": "api.place", "pk": 13, "fields": {"city": "Cairo", "lat": 30.05, "lon": 31.25, "country": "Egypt", "population": 11893000}}, {"model": "api.place", "pk": 14, "fields": {"city": "Rio de Janeiro", "lat": -22.925, "lon": -43.225, "country": "Brazil", "population": 11748000}}, {"model": "api.place", "pk": 15, "fields": {"city": "Osaka", "lat": 34.75, "lon": 135.4601, "country": "Japan", "population": 11294000}}, {"model": "api.place", "pk": 16, "fields": {"city": "Beijing", "lat": 39.9289, "lon": 116.3883, "country": "China", "population": 11106000}}, {"model": "api.place", "pk": 17, "fields": {"city": "Manila", "lat": 14.6042, "lon": 120.9822, "country": "Philippines", "population": 11100000}}, {"model": "api.place", "pk": 18, "fields": {"city": "Moscow", "lat": 55.7522, "lon": 37.6155, "country": "Russia", "population": 10452000}}, {"model": "api.place", "pk": 19, "fields": {"city": "Istanbul", "lat": 41.105, "lon": 29.01, "country": "Turkey", "population": 10061000}}, {"model": "api.place", "pk": 20, "fields": {"city": "Paris", "lat": 48.8667, "lon": 2.3333, "country": "France", "population": 9904000}}, {"model": "api.place", "pk": 21, "fields": {"city": "Seoul", "lat": 37.5663, "lon": 126.9997, "country": "Korea, South", "population": 9796000}}, {"model": "api.place", "pk": 22, "fields": {"city": "Lagos", "lat": 6.4433, "lon": 3.3915, "country": "Nigeria", "population": 9466000}}, {"model": "api.place", "pk": 23, "fields": {"city": "Jakarta", "lat": -6.1744, "lon": 106.8294, "country": "Indonesia", "population": 9125000}}, {"model": "api.place", "pk": 24, "fields": {"city": "Guangzhou", "lat": 23.145, "lon": 113.325, "country": "China", "population": 8829000}}, {"model": "api.place", "pk": 25, "fields": {"city": "Chicago", "lat": 41.8373, "lon": -87.6861, "country": "United States", "population": 8639278}}, {"model": "api.place", "pk": 26, "fields": {"city": "London", "lat": 51.5, "lon": -0.1167, "country": "United Kingdom", "population": 8567000}}, {"model": "api.place", "pk": 27, "fields": {"city": "Lima", "lat": -12.048, "lon": -77.0501, "country": "Peru", "population": 8012000}}, {"model": "api.place", "pk": 28, "fields": {"city": "Tehran", "lat": 35.6719, "lon": 51.4243, "country": "Iran", "population": 7873000}}, {"model": "api.place", "pk": 29, "fields": {"city": "Kinshasa", "lat": -4.3297, "lon": 15.315, "country": "Congo (Kinshasa)", "population": 7843000}}, {"model": "api.place", "pk": 30, "fields": {"city": "Bogota", "lat": 4.5964, "lon": -74.0833, "country": "Colombia", "population": 7772000}}, {"model": "api.place", "pk": 31, "fields": {"city": "Shenzhen", "lat": 22.5524, "lon": 114.1221, "country": "China", "population": 7581000}}, {"model": "api.place", "pk": 32, "fields": {"city": "Wuhan", "lat": 30.58, "lon": 114.27, "country": "China", "population": 7243000}}, {"model": "api.place", "pk": 33, "fields": {"city": "Hong Kong", "lat": 22.305, "lon": 114.185, "country": "Hong Kong", "population": 7206000}}, {"model": "api.place", "pk": 34, "fields": {"city": "Tianjin", "lat": 39.13, "lon": 117.2, "country": "China", "population": 7180000}}, {"model": "api.place", "pk": 35, "fields": {"city": "Chennai", "lat": 13.09, "lon": 80.28, "country": "India", "population": 7163000}}, {"model": "api.place", "pk": 36, "fields": {"city": "Taipei", "lat": 25.0358, "lon": 121.5683, "country": "Taiwan", "population": 6900273}}, {"model": "api.place", "pk": 37, "fields": {"city": "Bangalore", "lat": 12.97, "lon": 77.56, "country": "India", "population": 6787000}}, {"model": "api.place", "pk": 38, "fields": {"city": "Bangkok", "lat": 13.75, "lon": 100.5166, "country": "Thailand", "population": 6704000}}, {"model": "api.place", "pk": 39, "fields": {"city": "Lahore", "lat": 31.56, "lon": 74.35, "country": "Pakistan", "population": 6577000}}, {"model": "api.place", "pk": 40, "fields": {"city": "Chongqing", "lat": 29.565, "lon": 106.595, "country": "China", "population": 6461000}}, {"model": "api.place", "pk": 41, "fields": {"city": "Hyderabad", "lat": 17.4, "lon": 78.48, "country": "India", "population": 6376000}}, {"model": "api.place", "pk": 42, "fields": {"city": "Miami", "lat": 25.784, "lon": -80.2102, "country": "United States", "population": 6247425}}, {"model": "api.place", "pk": 43, "fields": {"city": "Santiago", "lat": -33.45, "lon": -70.667, "country": "Chile", "population": 5720000}}, {"model": "api.place", "pk": 44, "fields": {"city": "Dallas", "lat": 32.7938, "lon": -96.7659, "country": "United States", "population": 5634307}}, {"model": "api.place", "pk": 45, "fields": {"city": "Philadelphia", "lat": 40.0076, "lon": -75.134, "country": "United States", "population": 5591554}}, {"model": "api.place", "pk": 46, "fields": {"city": "Belo Horizonte", "lat": -19.915, "lon": -43.915, "country": "Brazil", "population": 5575000}}, {"model": "api.place", "pk": 47, "fields": {"city": "Madrid", "lat": 40.4, "lon": -3.6834, "country": "Spain", "population": 5567000}}, {"model": "api.place", "pk": 48, "fields": {"city": "Houston", "lat": 29.7871, "lon": -95.3936, "country": "United States", "population": 5424720}}, {"model": "api.place", "pk": 49, "fields": {"city": "Ahmedabad", "lat": 23.0301, "lon": 72.58, "country": "India", "population": 5375000}}, {"model": "api.place", "pk": 50, "fields": {"city": "Ho Chi Minh City", "lat": 10.78, "lon": 106.695, "country": "Vietnam", "population": 5314000}}, {"model": "api.place", "pk": 51, "fields": {"city": "Toronto", "lat": 43.7, "lon": -79.42, "country": "Canada", "population": 5213000}}, {"model": "api.place", "pk": 52, "fields": {"city": "Washington", "lat": 38.9047, "lon": -77.0163, "country": "United States", "population": 5191844}}, {"model": "api.place", "pk": 53, "fields": {"city": "Singapore", "lat": 1.293, "lon": 103.8558, "country": "Singapore", "population": 5183700}}, {"model": "api.place", "pk": 54, "fields": {"city": "Luanda", "lat": -8.8383, "lon": 13.2344, "country": "Angola", "population": 5172900}}, {"model": "api.place", "pk": 55, "fields": {"city": "Atlanta", "lat": 33.7627, "lon": -84.4231, "country": "United States", "population": 5080712}}, {"model": "api.place", "pk": 56, "fields": {"city": "Baghdad", "lat": 33.3386, "lon": 44.3939, "country": "Iraq", "population": 5054000}}, {"model": "api.place", "pk": 57, "fields": {"city": "Barcelona", "lat": 41.3833, "lon": 2.1834, "country": "Spain", "population": 4920000}}, {"model": "api.place", "pk": 58, "fields": {"city": "Haora", "lat": 22.5804, "lon": 88.3299, "country": "India", "population": 4841638}}, {"model": "api.place", "pk": 59, "fields": {"city": "Shenyeng", "lat": 41.805, "lon": 123.45, "country": "China", "population": 4787000}}, {"model": "api.place", "pk": 60, "fields": {"city": "Khartoum", "lat": 15.5881, "lon": 32.5342, "country": "Sudan", "population": 4754000}}, {"model": "api.place", "pk": 61, "fields": {"city": "Pune", "lat": 18.53, "lon": 73.85, "country": "India", "population": 4672000}}, {"model": "api.place", "pk": 62, "fields": {"city": "Sydney", "lat": -33.92, "lon": 151.1852, "country": "Australia", "population": 4630000}}, {"model": "api.place", "pk": 63, "fields": {"city": "Boston", "lat": 42.3189, "lon": -71.0838, "country": "United States", "population": 4556916}}, {"model": "api.place", "pk": 64, "fields": {"city": "St. Petersburg", "lat": 59.939, "lon": 30.316, "country": "Russia", "population": 4553000}}, {"model": "api.place", "pk": 65, "fields": {"city": "Chittagong", "lat": 22.33, "lon": 91.8, "country": "Bangladesh", "population": 4529000}}, {"model": "api.place", "pk": 66, "fields": {"city": "Dongguan", "lat": 23.0489, "lon": 113.7447, "country": "China", "population": 4528000}}, {"model": "api.place", "pk": 67, "fields": {"city": "Riyadh", "lat": 24.6408, "lon": 46.7727, "country": "Saudi Arabia", "population": 4465000}}, {"model": "api.place", "pk": 68, "fields": {"city": "Hanoi", "lat": 21.0333, "lon": 105.85, "country": "Vietnam", "population": 4378000}}, {"model": "api.place", "pk": 69, "fields": {"city": "Guadalajara", "lat": 20.67, "lon": -103.33, "country": "Mexico", "population": 4198000}}, {"model": "api.place", "pk": 70, "fields": {"city": "Melbourne", "lat": -37.82, "lon": 144.975, "country": "Australia", "population": 4170000}}, {"model": "api.place", "pk": 71, "fields": {"city": "Alexandria", "lat": 31.2, "lon": 29.95, "country": "Egypt", "population": 4165000}}, {"model": "api.place", "pk": 72, "fields": {"city": "Chengdu", "lat": 30.67, "lon": 104.07, "country": "China", "population": 4123000}}, {"model": "api.place", "pk": 73, "fields": {"city": "Rangoon", "lat": 16.7834, "lon": 96.1667, "country": "Burma", "population": 4088000}}, {"model": "api.place", "pk": 74, "fields": {"city": "Phoenix", "lat": 33.5722, "lon": -112.0891, "country": "United States", "population": 4054083}}, {"model": "api.place", "pk": 75, "fields": {"city": "Xian", "lat": 34.275, "lon": 108.895, "country": "China", "population": 4009000}}, {"model": "api.place", "pk": 76, "fields": {"city": "Porto Alegre", "lat": -30.05, "lon": -51.2, "country": "Brazil", "population": 3917000}}, {"model": "api.place", "pk": 77, "fields": {"city": "Surat", "lat": 21.2, "lon": 72.84, "country": "India", "population": 3842000}}, {"model": "api.place", "pk": 78, "fields": {"city": "Hechi", "lat": 23.0965, "lon": 109.6091, "country": "China", "population": 3830000}}, {"model": "api.place", "pk": 79, "fields": {"city": "Abidjan", "lat": 5.32, "lon": -4.04, "country": "C\u00f0\u00b4\u00a5\u00a0D\u00d3\u2030voire", "population": 3802000}}, {"model": "api.place", "pk": 80, "fields": {"city": "Brasilia", "lat": -15.7833, "lon": -47.9161, "country": "Brazil", "population": 3716996}}, {"model": "api.place", "pk": 81, "fields": {"city": "Ankara", "lat": 39.9272, "lon": 32.8644, "country": "Turkey", "population": 3716000}}, {"model": "api.place", "pk": 82, "fields": {"city": "Monterrey", "lat": 25.67, "lon": -100.33, "country": "Mexico", "population": 3712000}}, {"model": "api.place", "pk": 83, "fields": {"city": "Yokohama", "lat": 35.32, "lon": 139.58, "country": "Japan", "population": 3697894}}, {"model": "api.place", "pk": 84, "fields": {"city": "Nanjing", "lat": 32.05, "lon": 118.78, "country": "China", "population": 3679000}}, {"model": "api.place", "pk": 85, "fields": {"city": "Montreal", "lat": 45.5, "lon": -73.5833, "country": "Canada", "population": 3678000}}, {"model": "api.place", "pk": 86, "fields": {"city": "Guiyang", "lat": 26.58, "lon": 106.72, "country": "China", "population": 3662000}}, {"model": "api.place", "pk": 87, "fields": {"city": "Recife", "lat": -8.0756, "lon": -34.9156, "country": "Brazil", "population": 3651000}}, {"model": "api.place", "pk": 88, "fields": {"city": "Harbin", "lat": 45.75, "lon": 126.65, "country": "China", "population": 3621000}}, {"model": "api.place", "pk": 89, "fields": {"city": "Fortaleza", "lat": -3.75, "lon": -38.58, "country": "Brazil", "population": 3602319}}, {"model": "api.place", "pk": 90, "fields": {"city": "San Francisco", "lat": 37.7561, "lon": -122.4429, "country": "United States", "population": 3548847}}, {"model": "api.place", "pk": 91, "fields": {"city": "Seattle", "lat": 47.6217, "lon": -122.3238, "country": "United States", "population": 3541236}}, {"model": "api.place", "pk": 92, "fields": {"city": "Zhangzhou", "lat": 24.5204, "lon": 117.67, "country": "China", "population": 3531147}}, {"model": "api.place", "pk": 93, "fields": {"city": "Detroit", "lat": 42.3834, "lon": -83.1024, "country": "United States", "population": 3520589}}, {"model": "api.place", "pk": 94, "fields": {"city": "Salvador", "lat": -12.97, "lon": -38.48, "country": "Brazil", "population": 3484000}}, {"model": "api.place", "pk": 95, "fields": {"city": "Busan", "lat": 35.0951, "lon": 129.01, "country": "Korea, South", "population": 3480000}}, {"model": "api.place", "pk": 96, "fields": {"city": "Johannesburg", "lat": -26.17, "lon": 28.03, "country": "South Africa", "population": 3435000}}, {"model": "api.place", "pk": 97, "fields": {"city": "Berlin", "lat": 52.5218, "lon": 13.4015, "country": "Germany", "population": 3406000}}, {"model": "api.place", "pk": 98, "fields": {"city": "Algiers", "lat": 36.7631, "lon": 3.0506, "country": "Algeria", "population": 3354000}}, {"model": "api.place", "pk": 99, "fields": {"city": "Rome", "lat": 41.896, "lon": 12.4833, "country": "Italy", "population": 3339000}}, {"model": "api.place", "pk": 100, "fields": {"city": "Pyongyang", "lat": 39.0194, "lon": 125.7547, "country": "Korea, North", "population": 3300000}}]